[
  {
    "id": 2801268,
    "name": "London",
    "region": "City of London, Greater London",
    "country": "United Kingdom",
    "lat": 51.52,
    "lon": -0.11,
    "url": "london-city-of-london-greater-london-united-kingdom"
  },
  {
    "id": 2796590,
    "name": "Holborn",
    "region": "Camden, Greater London",
    "country": "United Kingdom",
    "lat": 51.52,
    "lon": -0.12,
    "url": "holborn-camden-greater-london-united-kingdom"
  },
  {
    "id": 2812957,
    "name": "St Giles",
    "region": "Camden, Greater London",
    "country": "United Kingdom",
    "lat": 51.52,
    "lon": -0.12,
    "url": "st-giles-camden-greater-london-united-kingdom"
  },
  {
    "id": 2786308,
    "name": "Clerkenwell",
    "region": "Islington, Greater London",
    "country": "United Kingdom",
    "lat": 51.53,
    "lon": -0.11,
    "url": "clerkenwell-islington-greater-london-united-kingdom"
  },
  {
    "id": 2791655,
    "name": "Finsbury",
    "region": "Islington, Greater London",
    "country": "United Kingdom",
    "lat": 51.53,
    "lon": -0.11,
    "url": "finsbury-islington-greater-london-united-kingdom"
  },
  {
    "id": 2813087,
    "name": "St Pancras",
    "region": "Camden, Greater London",
    "country": "United Kingdom",
    "lat": 51.53,
    "lon": -0.12,
    "url": "st-pancras-camden-greater-london-united-kingdom"
  },
  {
    "id": 2781746,
    "name": "Bloomsbury",
    "region": "Camden, Greater London",
    "country": "United Kingdom",
    "lat": 51.53,
    "lon": -0.12,
    "url": "bloomsbury-camden-greater-london-united-kingdom"
  },
  {
    "id": 2813948,
    "name": "Strand",
    "region": "Westminster, Greater London",
    "country": "United Kingdom",
    "lat": 51.51,
    "lon": -0.12,
    "url": "strand-westminster-greater-london-united-kingdom"
  },
  {
    "id": 2811665,
    "name": "Shoreditch",
    "region": "Hackney, Greater London",
    "country": "United Kingdom",
    "lat": 51.53,
    "lon": -0.09,
    "url": "shoreditch-hackney-greater-london-united-kingdom"
  },
  {
    "id": 2813028,
    "name": "St Luke's",
    "region": "Islington, Greater London",
    "country": "United Kingdom",
    "lat": 51.53,
    "lon": -0.09,
    "url": "st-lukes-islington-greater-london-united-kingdom"
  }
]